[
    {
    "name": "Cabbage Town",
    "queryname": "Cabbagetown, Old Toronto, Toronto, ON, Canada",
    "id": "f4dff8c0-b1b4",
    "description": "Cabbagetown largely features semi-detached Victorian houses and is recognized as \"the largest continuous area of preserved Victorian housing in all of North America\".",
    "address": "480 Parliament St",
    "city": "Toronto",
    "postalcode": "M4X 1P2",
    "country": "Canada",
    "latitude": "43.6645689",
    "longitude": "-79.3682749"
    },
    {
    "name": "Casa Loma",
    "queryname": "Casa Loma, Old Toronto, Toronto, ON, Canada",
    "id": "0c17b802-b1b5",
    "description": "Casa Loma is a neighborhood named after its famous castle. Casa Loma was constructed in the early 1900s for over three million dollars and was given to the city by its heavily debt-laden owner only a decade after it was put up.",
    "address": "1 Austin Terrace",
    "city": "Toronto",
    "postalcode": "M5R 1X8",
    "country": "Canada",
    "latitude": "43.6781015",
    "longitude": "-79.4094158"
    },
    {
    "name": "Danforth",
    "queryname": "The Danforth, Old Toronto, Toronto, ON, Canada",
    "id": "14ecb6c6-b1b5",
    "description": "Crowds come for to its international mix of restaurants, cafes and bars, especially the Greek tavernas and pastry shops, as well as a vibrant mix of specialty boutiques.",
    "address": "1490 Danforth Ave",
    "city": "Toronto",
    "postalcode": "M4J 1N4",
    "country": "Canada",
    "latitude": "43.6830464",
    "longitude": "-79.3257134"
    },
    {
    "name": "Dufferin Grove",
    "queryname": "Dufferin Grove, Old Toronto, Toronto, ON, Canada",
    "id": "20680064-b1b5",
    "description": "The neighbourhood is predominantly two or three-storey detached or semi-detached homes at a medium density. The majority of Dufferin Grove houses were built between 1890 and 1930.",
    "address": "536 Dovercourt Rd",
    "city": "Toronto",
    "postalcode": "M6H 2W4",
    "country": "Canada",
    "latitude": "43.6697723",
    "longitude": "-79.4327625"
    },
    {
    "name": "High Park",
    "queryname": "High Park North, Old Toronto, Toronto, ON, Canada",
    "id": "36fde410-b1b5",
    "description": "The oldest residential houses in High Park North were built in the late 1800s and early 1900s and are mostly Victorian, Edwardian and Tudor-style",
    "address": "1879 Bloor St W",
    "city": "Toronto",
    "postalcode": "M6P 3K8",
    "country": "Canada",
    "latitude": "43.6574725",
    "longitude": "-79.4469636"
    },
    {
    "name": "Forest Hill",
    "queryname": "Forest Hill, Old Toronto, Toronto, ON, Canada",
    "id": "2b0e7660-b1b5",
    "description": "Forest Hill is one of Toronto's wealthiest and most affluent neighbourhoods. It is home to many prominent entrepreneurs, celebrities, engineers, doctors, and lawyers",
    "address": "2100 Bathurst St",
    "city": "Toronto",
    "postalcode": "M5N 2P2",
    "country": "Canada",
    "latitude": "43.7037745",
    "longitude": "-79.4263879"
    },
    {
    "name": "Kensington",
    "queryname": "Kensington Market, Old Toronto, Toronto, ON, Canada",
    "id": "4cd0b10f-3ac3",
    "description": "Kensington Market is a walkable bohemian neighbourhood that draws artists and tourists to its indie shops, vintage boutiques and arts spaces.",
    "address": "68 Nassau St",
    "city": "Toronto",
    "postalcode": "M5T 1M5",
    "country": "Canada",
    "latitude": "43.6552881",
    "longitude": "-79.4026966"
    },
    {
    "name": "Lawrence Park",
    "queryname": "Lawrence Park, Old Toronto, Toronto, ON, Canada",
    "id": "5a884b56-df13",
    "description": "Lawrence Park was one of Toronto's first planned garden suburbs.",
    "address": "378 Blythwood Rd",
    "city": "Toronto",
    "postalcode": "M4N 2Z5",
    "country": "Canada",
    "latitude": "43.7194805",
    "longitude": "-79.3864244"
    },
    {
    "name": "Leslieville",
    "queryname": "Leslieville, Old Toronto, Toronto, ON, Canada",
    "id": "6c52f2fe-8e14",
    "description": "Leslieville began as a small village in the 1850s, which grew up around the Toronto Nurseries owned by George Leslie (1804-1893) and sons, after whom the community is named.",
    "address": "1521 Dundas St E",
    "city": "Toronto",
    "postalcode": "M4L 1K6",
    "country": "Canada",
    "latitude": "43.6619984",
    "longitude": "-79.3533421"
    },
    {
    "name": "Little Portugal",
    "queryname": "Little Portugal, Old Toronto, Toronto, ON, Canada",
    "id": "30be68b0-77e7",
    "description": "The area is mainly residential, with Portuguese businesses along Dundas Street West and College Street. There is a fine stock of mid-century homes.",
    "address": "636 Dufferin St",
    "city": "Toronto",
    "postalcode": "M6K 2A9",
    "country": "Canada",
    "latitude": "43.6494745",
    "longitude": "-79.431568"
    },
    {
    "name": "Parkdale",
    "queryname": "Parkdale, Old Toronto, Toronto, ON, Canada",
    "id": "835be8a8-ee34",
    "description": "Parkdale is a multicultural residential neighbourhood with wide, pedestrian friendly sidewalks, colourful street art and a mix of Victorian mansions and apartment buildings.",
    "address": "1468 Queen St W",
    "city": "Toronto",
    "postalcode": "M6K 1M4",
    "country": "Canada",
    "latitude": "43.6406888",
    "longitude": "-79.4368581"
    },
    {
    "name": "Regent Park",
    "queryname": "Regent Park, Old Toronto, Toronto, ON, Canada",
    "id": "c88b076b-47dd",
    "description": "Regent Park's residential dwellings, prior to the ongoing redevelopment, were entirely social housing and covered all of the 69 acres which comprise the community.",
    "address": "242 Sackville St",
    "city": "Toronto",
    "postalcode": "M5A 3G1",
    "country": "Canada",
    "latitude": "43.6598986",
    "longitude": "-79.363049"
    },
    {
    "name": "Riverdale",
    "queryname": "Riverdale, Old Toronto, Toronto, ON, Canada",
    "id": "9bd61c4c-20d1",
    "description": "Riverdale is located just east of Toronto's downtown core. Since its amendment to the City of Toronto in 1884, it has developed a stature as a neighbourhood of independent arts, with several independent galleries located along Queen Street East.",
    "address": "692 Logan Ave",
    "city": "Toronto",
    "postalcode": "M4K 3C5",
    "country": "Canada",
    "latitude": "43.6727519",
    "longitude": "-79.3477143"
    },
    {
    "name": "Roncesvalles",
    "queryname": "Roncesvalles, Old Toronto, Toronto, ON, Canada",
    "id": "2d06a38c-0e75",
    "description": "Culturally, the area is known as the centre of the Polish community in Toronto with prominent Polish institutions, businesses and St Casimir's Catholic Church located on Roncesvalles Avenue.",
    "address": "276 Roncesvalles Ave",
    "city": "Toronto",
    "postalcode": "M6R 2M2",
    "country": "Canada",
    "latitude": "43.6475443",
    "longitude": "-79.4498268"
    },
    {
    "name": "Rosedale",
    "queryname": "Rosedale, Old Toronto, Toronto, ON, Canada",
    "id": "3d35b446-03b5",
    "description": "Rosedale is an affluent neighbourhood in central Toronto, Ontario, Canada. It was formerly the estate of William Botsford Jarvis, and so named by his wife, granddaughter of William Dummer Powell, for the wild roses that grew there in abundance.",
    "address": "42 MacLennan Ave",
    "city": "Toronto",
    "postalcode": "M4W 2Y3",
    "country": "Canada",
    "latitude": "43.6883233",
    "longitude": "-79.3792442"
    },
    {
    "name": "Runnymede",
    "queryname": "Runnymede, Old Toronto, Toronto, ON, Canada",
    "id": "f2f2553a",
    "description": "The neighbourhood has two Toronto Public Library locations, Runnymede and Annette, and there is a nearby location in Swansea.",
    "address": "591 Annette Street",
    "city": "Toronto",
    "postalcode": "M6S 2C3",
    "country": "Canada",
    "latitude": "43.6593",
    "longitude": "-79.4838"
    },
    {
    "name": "Swansea",
    "queryname": "Swansea, Old Toronto, Toronto, ON, Canada",
    "id": "eccaa591-1c24",
    "description": "Swansea's high-end homes are located either at the western edge of High Park overlooking Grenadier Pond, or on Riverside Drive and the Brule Gardens enclave bordering the Humber River.",
    "address": "158 Windermere Ave",
    "city": "Toronto",
    "postalcode": "M6S 3J7",
    "country": "Canada",
    "latitude": "43.641826",
    "longitude": "-79.4753951"
    },
    {
    "name": "The Annex",
    "queryname": "The Annex, Old Toronto, Toronto, ON, Canada",
    "id": "084c2b47-bdad",
    "description": "Next to University of Toronto's St. George Campus, The Annex is a lively area that draws students to its casual eateries, indie bookshops, bars and cafes on Bloor Street West.",
    "address": "88 Spadina Rd",
    "city": "Toronto",
    "postalcode": "M5R 2S8",
    "country": "Canada",
    "latitude": "43.67108",
    "longitude": "-79.404351"
    },
    {
    "name": "The Beaches",
    "queryname": "The Beaches, Old Toronto, Toronto, ON, Canada",
    "id": "252aa378-b1b4",
    "description": "This relaxed neighbourhood with a small-town vibe is a top summer destination, drawing families and tourists to its sandy beaches and quaint boardwalk.",
    "address": "2161 Queen St E",
    "city": "Toronto",
    "postalcode": "M4L 1J1",
    "country": "Canada",
    "latitude": "43.670071",
    "longitude": "-79.2985092"
    },
    {
    "name": "Trinity-Bellwoods",
    "queryname": "Trinity-Bellwoods, Old Toronto, Toronto, ON, Canada",
    "id": "3cf60389-ed78",
    "description": "The neighbourhood takes its name from Trinity Bellwoods Park, built around the former Garrison Creek ravine.",
    "address": "1000 Dundas St W",
    "city": "Toronto",
    "postalcode": "M6J 1W6",
    "country": "Canada",
    "latitude": "43.6504886",
    "longitude": "-79.4156758"
    },
    {
    "name": "University",
    "queryname": "University, Old Toronto, Toronto, ON, Canada",
    "id": "561a4fee-c1b9",
    "description": "The downtown University district contains the historic main University of Toronto campus, where Gothic Revival and Romanesque buildings frame large lawns.",
    "address": "75 Saint George St",
    "city": "Toronto",
    "postalcode": "M5S 2E5",
    "country": "Canada",
    "latitude": "43.6630452",
    "longitude": "-79.3974873"
    },
    {
    "name": "Willowdale",
    "queryname": "Willowdale, Old Toronto, Toronto, ON, Canada",
    "id": "0b83886e-37fb",
    "description": "Affluent Willowdale has cafes, eclectic restaurants, and shopping centres clustered along central Yonge Street.",
    "address": "7755 Beecroft Rd",
    "city": "North York",
    "postalcode": "M2N 1Y7",
    "country": "Canada",
    "latitude": "43.7606745",
    "longitude": "-79.412783"
    },
    {
    "name": "Wychwood",
    "queryname": "Wychwood, Old Toronto, Toronto, ON, Canada",
    "id": "7ddec4f6-cb26",
    "description": "Wychwood Park was founded as an artists' colony in the late nineteenth century, as a private project by painter Marmaduke Matthews and businessman Alexander Jardine.",
    "address": "577 Christie St",
    "city": "Toronto",
    "postalcode": "M6G 3E2",
    "country": "Canada",
    "latitude": "43.6799009",
    "longitude": "-79.4249884"
    },
    {
    "name": "York University Heights",
    "queryname": "York University Height, Old Toronto, Toronto, ON, Canada",
    "id": "a35336d3-06fd",
    "description": "York University Heights, also known as Northwood Park, is a large, multicultural area home to the main York University campus.",
    "address": "1408 Finch Ave W",
    "city": "North York",
    "postalcode": "M3J 1P2",
    "country": "Canada",
    "latitude": "43.763655",
    "longitude": "-79.490468"
    }
    ]